$GPGGA,115954.000,0000.0000,N,00000.0000,E,0,00,0.0,0.0,M,0.0,M,,0000*60
$GPGLL,0000.0000,N,00000.0000,E,115954.000,V,N*4C
$GPGSA,A,1,,,,,,,,,,,,,0.0,0.0,0.0*30
$GPRMC,115954.000,V,0000.0000,N,00000.0000,E,000.0,000.0,280606,,,N*71
$GPVTG,000.0,T,,M,000.0,N,000.0,K,N*02
$GPZDA,115954.000,28,06,2006,00,00*53
$GPGGA,115955.000,0000.0000,N,00000.0000,E,0,00,0.0,0.0,M,0.0,M,,0000*61
$GPGLL,0000.0000,N,00000.0000,E,115955.000,V,N*4D
$GPGSA,A,1,,,,,,,,,,,,,0.0,0.0,0.0*30
$GPRMC,115955.000,V,0000.0000,N,00000.0000,E,000.0,000.0,280606,,,N*70
$GPVTG,000.0,T,,M,000.0,N,000.0,K,N*02
$GPZDA,115955.000,28,06,2006,00,00*52
$GPGGA,115956.000,0000.0000,N,00000.0000,E,0,00,0.0,0.0,M,0.0,M,,0000*62
$GPGLL,0000.0000,N,00000.0000,E,115956.000,V,N*4E
$GPGSA,A,1,,,,,,,,,,,,,0.0,0.0,0.0*30
$GPRMC,115956.000,V,0000.0000,N,00000.0000,E,000.0,000.0,280606,,,N*73
$GPVTG,000.0,T,,M,000.0,N,000.0,K,N*02
$GPZDA,115956.000,28,06,2006,00,00*51
$GPGGA,115957.000,0000.0000,N,00000.0000,E,0,00,0.0,0.0,M,0.0,M,,0000*63
$GPGLL,0000.0000,N,00000.0000,E,115957.000,V,N*4F
$GPGSA,A,1,,,,,,,,,,,,,0.0,0.0,0.0*30
$GPRMC,115957.000,V,0000.0000,N,00000.0000,E,000.0,000.0,280606,,,N*72
$GPVTG,000.0,T,,M,000.0,N,000.0,K,N*02
$GPZDA,115957.000,28,06,2006,00,00*50
$GPGGA,115958.000,0000.0000,N,00000.0000,E,0,00,0.0,0.0,M,0.0,M,,0000*6C
$GPGLL,0000.0000,N,00000.0000,E,115958.000,V,N*40
$GPGSA,A,1,,,,,,,,,,,,,0.0,0.0,0.0*30
$GPRMC,115958.000,V,0000.0000,N,00000.0000,E,000.0,000.0,280606,,,N*7D
$GPVTG,000.0,T,,M,000.0,N,000.0,K,N*02
$GPZDA,115958.000,28,06,2006,00,00*5F
$GPGGA,115959.000,0000.0000,N,00000.0000,E,0,00,0.0,0.0,M,0.0,M,,0000*6D
$GPGLL,0000.0000,N,00000.0000,E,115959.000,V,N*41
$GPGSA,A,1,,,,,,,,,,,,,0.0,0.0,0.0*30
$GPRMC,115959.000,V,0000.0000,N,00000.0000,E,000.0,000.0,280606,,,N*7C
$GPVTG,000.0,T,,M,000.0,N,000.0,K,N*02
$GPZDA,115959.000,28,06,2006,00,00*5E
$GPGGA,120000.000,0000.0000,N,00000.0000,E,0,00,0.0,0.0,M,0.0,M,,0000*6E
$GPGLL,0000.0000,N,00000.0000,E,120000.000,V,N*42
$GPGSA,A,1,,,,,,,,,,,,,0.0,0.0,0.0*30
$GPRMC,120000.000,V,0000.0000,N,00000.0000,E,000.0,000.0,280606,,,N*7F
$GPVTG,000.0,T,,M,000.0,N,000.0,K,N*02
$GPZDA,120000.000,28,06,2006,00,00*5D
$GPGGA,120001.000,0000.0000,N,00000.0000,E,0,00,0.0,0.0,M,0.0,M,,0000*6F
$GPGLL,0000.0000,N,00000.0000,E,120001.000,V,N*43
$GPGSA,A,1,,,,,,,,,,,,,0.0,0.0,0.0*30
$GPRMC,120001.000,V,0000.0000,N,00000.0000,E,000.0,000.0,280606,,,N*7E
$GPVTG,000.0,T,,M,000.0,N,000.0,K,N*02
$GPZDA,120001.000,28,06,2006,00,00*5C
$GPGGA,120002.000,0000.0000,N,00000.0000,E,0,00,0.0,0.0,M,0.0,M,,0000*6C
$GPGLL,0000.0000,N,00000.0000,E,120002.000,V,N*40
$GPGSA,A,1,,,,,,,,,,,,,0.0,0.0,0.0*30
$GPRMC,120002.000,V,0000.0000,N,00000.0000,E,000.0,000.0,280606,,,N*7D
$GPVTG,000.0,T,,M,000.0,N,000.0,K,N*02
$GPZDA,120002.000,28,06,2006,00,00*5F
$GPGGA,120003.000,0000.0000,N,00000.0000,E,0,00,0.0,0.0,M,0.0,M,,0000*6D
$GPGLL,0000.0000,N,00000.0000,E,120003.000,V,N*41
$GPGSA,A,1,,,,,,,,,,,,,0.0,0.0,0.0*30
$GPRMC,120003.000,V,0000.0000,N,00000.0000,E,000.0,000.0,280606,,,N*7C
$GPVTG,000.0,T,,M,000.0,N,000.0,K,N*02
$GPZDA,120003.000,28,06,2006,00,00*5E
$GPGGA,120004.000,0000.0000,N,00000.0000,E,0,00,0.0,0.0,M,0.0,M,,0000*6A
$GPGLL,0000.0000,N,00000.0000,E,120004.000,V,N*46
$GPGSA,A,1,,,,,,,,,,,,,0.0,0.0,0.0*30
$GPRMC,120004.000,V,0000.0000,N,00000.0000,E,000.0,000.0,280606,,,N*7B
$GPVTG,000.0,T,,M,000.0,N,000.0,K,N*02
$GPZDA,120004.000,28,06,2006,00,00*59
$GPGGA,120005.000,0000.0000,N,00000.0000,E,0,00,0.0,0.0,M,0.0,M,,0000*6B
$GPGLL,0000.0000,N,00000.0000,E,120005.000,V,N*47
$GPGSA,A,1,,,,,,,,,,,,,0.0,0.0,0.0*30
$GPRMC,120005.000,V,0000.0000,N,00000.0000,E,000.0,000.0,280606,,,N*7A
$GPVTG,000.0,T,,M,000.0,N,000.0,K,N*02
$GPZDA,120005.000,28,06,2006,00,00*58
$GPGGA,120006.000,0000.0000,N,00000.0000,E,0,00,0.0,0.0,M,0.0,M,,0000*68
$GPGLL,0000.0000,N,00000.0000,E,120006.000,V,N*44
$GPGSA,A,1,,,,,,,,,,,,,0.0,0.0,0.0*30
$GPRMC,120006.000,V,0000.0000,N,00000.0000,E,000.0,000.0,280606,,,N*79
$GPVTG,000.0,T,,M,000.0,N,000.0,K,N*02
$GPZDA,120006.000,28,06,2006,00,00*5B
$GPGGA,120007.000,0000.0000,N,00000.0000,E,0,00,0.0,0.0,M,0.0,M,,0000*69
$GPGLL,0000.0000,N,00000.0000,E,120007.000,V,N*45
$GPGSA,A,1,,,,,,,,,,,,,0.0,0.0,0.0*30
$GPRMC,120007.000,V,0000.0000,N,00000.0000,E,000.0,000.0,280606,,,N*78
$GPVTG,000.0,T,,M,000.0,N,000.0,K,N*02
$GPZDA,120007.000,28,06,2006,00,00*5A
$GPGGA,120008.000,0000.0000,N,00000.0000,E,0,00,0.0,0.0,M,0.0,M,,0000*66
$GPGLL,0000.0000,N,00000.0000,E,120008.000,V,N*4A
$GPGSA,A,1,,,,,,,,,,,,,0.0,0.0,0.0*30
$GPRMC,120008.000,V,0000.0000,N,00000.0000,E,000.0,000.0,280606,,,N*77
$GPVTG,000.0,T,,M,000.0,N,000.0,K,N*02
$GPZDA,120008.000,28,06,2006,00,00*55
$GPGGA,120009.000,0000.0000,N,00000.0000,E,0,00,0.0,0.0,M,0.0,M,,0000*67
$GPGLL,0000.0000,N,00000.0000,E,120009.000,V,N*4B
$GPGSA,A,1,,,,,,,,,,,,,0.0,0.0,0.0*30
$GPRMC,120009.000,V,0000.0000,N,00000.0000,E,000.0,000.0,280606,,,N*76
$GPVTG,000.0,T,,M,000.0,N,000.0,K,N*02
$GPZDA,120009.000,28,06,2006,00,00*54
$GPGGA,120010.000,0000.0000,N,00000.0000,E,0,00,0.0,0.0,M,0.0,M,,0000*6F
$GPGLL,0000.0000,N,00000.0000,E,120010.000,V,N*43
$GPGSA,A,1,,,,,,,,,,,,,0.0,0.0,0.0*30
$GPRMC,120010.000,V,0000.0000,N,00000.0000,E,000.0,000.0,280606,,,N*7E
$GPVTG,000.0,T,,M,000.0,N,000.0,K,N*02
$GPZDA,120010.000,28,06,2006,00,00*5C
$GPGGA,120011.000,0000.0000,N,00000.0000,E,0,00,0.0,0.0,M,0.0,M,,0000*6E
$GPGLL,0000.0000,N,00000.0000,E,120011.000,V,N*42
$GPGSA,A,1,,,,,,,,,,,,,0.0,0.0,0.0*30
$GPRMC,120011.000,V,0000.0000,N,00000.0000,E,000.0,000.0,280606,,,N*7F
$GPVTG,000.0,T,,M,000.0,N,000.0,K,N*02
$GPZDA,120011.000,28,06,2006,00,00*5D
$GPGGA,120012.000,0000.0000,N,00000.0000,E,0,00,0.0,0.0,M,0.0,M,,0000*6D
$GPGLL,0000.0000,N,00000.0000,E,120012.000,V,N*41
$GPGSA,A,1,,,,,,,,,,,,,0.0,0.0,0.0*30
$GPRMC,120012.000,V,0000.0000,N,00000.0000,E,000.0,000.0,280606,,,N*7C
$GPVTG,000.0,T,,M,000.0,N,000.0,K,N*02
$GPZDA,120012.000,28,06,2006,00,00*5E
$GPGGA,120013.000,0000.0000,N,00000.0000,E,0,00,0.0,0.0,M,0.0,M,,0000*6C
$GPGLL,0000.0000,N,00000.0000,E,120013.000,V,N*40
$GPGSA,A,1,,,,,,,,,,,,,0.0,0.0,0.0*30
$GPRMC,120013.000,V,0000.0000,N,00000.0000,E,000.0,000.0,280606,,,N*7D
$GPVTG,000.0,T,,M,000.0,N,000.0,K,N*02
$GPZDA,120013.000,28,06,2006,00,00*5F
$GPGGA,120014.000,0000.0000,N,00000.0000,E,0,00,0.0,0.0,M,0.0,M,,0000*6B
$GPGLL,0000.0000,N,00000.0000,E,120014.000,V,N*47
$GPGSA,A,1,,,,,,,,,,,,,0.0,0.0,0.0*30
$GPRMC,120014.000,V,0000.0000,N,00000.0000,E,000.0,000.0,280606,,,N*7A
$GPVTG,000.0,T,,M,000.0,N,000.0,K,N*02
$GPZDA,120014.000,28,06,2006,00,00*58
$GPGGA,120015.000,0000.0000,N,00000.0000,E,0,00,0.0,0.0,M,0.0,M,,0000*6A
$GPGLL,0000.0000,N,00000.0000,E,120015.000,V,N*46
$GPGSA,A,1,,,,,,,,,,,,,0.0,0.0,0.0*30
$GPRMC,120015.000,V,0000.0000,N,00000.0000,E,000.0,000.0,280606,,,N*7B
$GPVTG,000.0,T,,M,000.0,N,000.0,K,N*02
$GPZDA,120015.000,28,06,2006,00,00*59
$GPGGA,120016.000,0000.0000,N,00000.0000,E,0,00,0.0,0.0,M,0.0,M,,0000*69
$GPGLL,0000.0000,N,00000.0000,E,120016.000,V,N*45
$GPGSA,A,1,,,,,,,,,,,,,0.0,0.0,0.0*30
$GPRMC,120016.000,V,0000.0000,N,00000.0000,E,000.0,000.0,280606,,,N*78
$GPVTG,000.0,T,,M,000.0,N,000.0,K,N*02
$GPZDA,120016.000,28,06,2006,00,00*5A
$GPGGA,120017.000,0000.0000,N,00000.0000,E,0,00,0.0,0.0,M,0.0,M,,0000*68
$GPGLL,0000.0000,N,00000.0000,E,120017.000,V,N*44
$GPGSA,A,1,,,,,,,,,,,,,0.0,0.0,0.0*30
$GPRMC,120017.000,V,0000.0000,N,00000.0000,E,000.0,000.0,280606,,,N*79
$GPVTG,000.0,T,,M,000.0,N,000.0,K,N*02
$GPZDA,120017.000,28,06,2006,00,00*5B
$GPGGA,120018.000,0000.0000,N,00000.0000,E,0,00,0.0,0.0,M,0.0,M,,0000*67
$GPGLL,0000.0000,N,00000.0000,E,120018.000,V,N*4B
$GPGSA,A,1,,,,,,,,,,,,,0.0,0.0,0.0*30
$GPRMC,120018.000,V,0000.0000,N,00000.0000,E,000.0,000.0,280606,,,N*76
$GPVTG,000.0,T,,M,000.0,N,000.0,K,N*02
$GPZDA,120018.000,28,06,2006,00,00*54
$GPGGA,120019.000,0000.0000,N,00000.0000,E,0,00,0.0,0.0,M,0.0,M,,0000*66
$GPGLL,0000.0000,N,00000.0000,E,120019.000,V,N*4A
$GPGSA,A,1,,,,,,,,,,,,,0.0,0.0,0.0*30
$GPRMC,120019.000,V,0000.0000,N,00000.0000,E,000.0,000.0,280606,,,N*77
$GPVTG,000.0,T,,M,000.0,N,000.0,K,N*02
$GPZDA,120019.000,28,06,2006,00,00*55
$GPGGA,120020.000,0000.0000,N,00000.0000,E,0,00,0.0,0.0,M,0.0,M,,0000*6C
$GPGLL,0000.0000,N,00000.0000,E,120020.000,V,N*40
$GPGSA,A,1,,,,,,,,,,,,,0.0,0.0,0.0*30
$GPRMC,120020.000,V,0000.0000,N,00000.0000,E,000.0,000.0,280606,,,N*7D
$GPVTG,000.0,T,,M,000.0,N,000.0,K,N*02
$GPZDA,120020.000,28,06,2006,00,00*5F
$GPGGA,120021.000,0000.0000,N,00000.0000,E,0,00,0.0,0.0,M,0.0,M,,0000*6D
$GPGLL,0000.0000,N,00000.0000,E,120021.000,V,N*41
$GPGSA,A,1,,,,,,,,,,,,,0.0,0.0,0.0*30
$GPRMC,120021.000,V,0000.0000,N,00000.0000,E,000.0,000.0,280606,,,N*7C
$GPVTG,000.0,T,,M,000.0,N,000.0,K,N*02
$GPZDA,120021.000,28,06,2006,00,00*5E
$GPGGA,120022.000,0000.0000,N,00000.0000,E,0,00,0.0,0.0,M,0.0,M,,0000*6E
$GPGLL,0000.0000,N,00000.0000,E,120022.000,V,N*42
$GPGSA,A,1,,,,,,,,,,,,,0.0,0.0,0.0*30
$GPRMC,120022.000,V,0000.0000,N,00000.0000,E,000.0,000.0,280606,,,N*7F
$GPVTG,000.0,T,,M,000.0,N,000.0,K,N*02
$GPZDA,120022.000,28,06,2006,00,00*5D
$GPGGA,120023.000,0000.0000,N,00000.0000,E,0,00,0.0,0.0,M,0.0,M,,0000*6F
$GPGLL,0000.0000,N,00000.0000,E,120023.000,V,N*43
$GPGSA,A,1,,,,,,,,,,,,,0.0,0.0,0.0*30
$GPRMC,120023.000,V,0000.0000,N,00000.0000,E,000.0,000.0,280606,,,N*7E
$GPVTG,000.0,T,,M,000.0,N,000.0,K,N*02
$GPZDA,120023.000,28,06,2006,00,00*5C
